{
"type": "FeatureCollection",
"name": "Estaciones_actuales_Metro_de_Santiago.",
"crs": { "type": "name", "properties": { "name": "urn:ogc:def:crs:OGC:1.3:CRS84" } },
"features": [
{ "type": "Feature", "properties": { "FID": 1, "objectid": 1, "id": "1", "especial": "EXISTENTE INTERMODAL", "estacion": "EXISTENTE", "nombre": "SAN PABLO", "temporal": "INTERMODAL", "f1": 1, "tipo": "ESTACION METRO", "linea": "Linea 1" }, "geometry": { "type": "Point", "coordinates": [ -70.723288529523799, -33.444189549309598 ] } },
{ "type": "Feature", "properties": { "FID": 2, "objectid": 2, "id": "2", "especial": "EXISTENTE", "estacion": "EXISTENTE", "nombre": "NEPTUNO", "temporal": "", "f1": 1, "tipo": "ESTACION METRO", "linea": "Linea 1" }, "geometry": { "type": "Point", "coordinates": [ -70.722538453585202, -33.451932518829203 ] } },
{ "type": "Feature", "properties": { "FID": 3, "objectid": 3, "id": "3", "especial": "EXISTENTE INTERMODAL", "estacion": "EXISTENTE", "nombre": "PAJARITOS", "temporal": "INTERMODAL", "f1": 1, "tipo": "ESTACION METRO", "linea": "Linea 1" }, "geometry": { "type": "Point", "coordinates": [ -70.7134030021858, -33.457826283635299 ] } },
{ "type": "Feature", "properties": { "FID": 4, "objectid": 4, "id": "4", "especial": "EXISTENTE", "estacion": "EXISTENTE", "nombre": "LAS REJAS", "temporal": "", "f1": 1, "tipo": "ESTACION METRO", "linea": "Linea 1" }, "geometry": { "type": "Point", "coordinates": [ -70.706474587890199, -33.457238155619301 ] } },
{ "type": "Feature", "properties": { "FID": 5, "objectid": 5, "id": "5", "especial": "CONSTRUCCION INTERMODAL", "estacion": "CONSTRUCCION", "nombre": "QUINTA NORMAL", "temporal": "INTERMODAL", "f1": 1, "tipo": "ESTACION METRO", "linea": "Linea 5" }, "geometry": { "type": "Point", "coordinates": [ -70.680073468528704, -33.440344079874201 ] } },
{ "type": "Feature", "properties": { "FID": 6, "objectid": 6, "id": "6", "especial": "EXISTENTE", "estacion": "EXISTENTE", "nombre": "SANTA ANA", "temporal": "", "f1": 1, "tipo": "ESTACION METRO", "linea": "Linea 5" }, "geometry": { "type": "Point", "coordinates": [ -70.659664815030595, -33.438375713862399 ] } },
{ "type": "Feature", "properties": { "FID": 7, "objectid": 7, "id": "7", "especial": "EXSTENTE", "estacion": "EXSTENTE", "nombre": "RICARDO CUMMING", "temporal": "", "f1": 1, "tipo": "ESTACION METRO", "linea": "Linea 5" }, "geometry": { "type": "Point", "coordinates": [ -70.664495142276905, -33.438779178526403 ] } },
{ "type": "Feature", "properties": { "FID": 8, "objectid": 8, "id": "8", "especial": "EXISTENTE", "estacion": "EXISTENTE", "nombre": "ECUADOR", "temporal": "", "f1": 1, "tipo": "ESTACION METRO", "linea": "Linea 1" }, "geometry": { "type": "Point", "coordinates": [ -70.7010540388778, -33.456189321975003 ] } },
{ "type": "Feature", "properties": { "FID": 9, "objectid": 9, "id": "9", "especial": "EXISTENTE", "estacion": "EXISTENTE", "nombre": "PILA DEL GANSO", "temporal": "", "f1": 1, "tipo": "ESTACION METRO", "linea": "Linea 1" }, "geometry": { "type": "Point", "coordinates": [ -70.692291296392199, -33.454255893222403 ] } },
{ "type": "Feature", "properties": { "FID": 10, "objectid": 10, "id": "10", "especial": "EXISTENTE", "estacion": "EXISTENTE", "nombre": "UNIVERSIDAD DE SANTIAGO", "temporal": "", "f1": 1, "tipo": "ESTACION METRO", "linea": "Linea 1" }, "geometry": { "type": "Point", "coordinates": [ -70.686276410891296, -33.452604206304997 ] } },
{ "type": "Feature", "properties": { "FID": 11, "objectid": 11, "id": "11", "especial": "EXISTENTE", "estacion": "EXISTENTE", "nombre": "ESTACION CENTRAL", "temporal": "", "f1": 1, "tipo": "ESTACION METRO", "linea": "Linea 1" }, "geometry": { "type": "Point", "coordinates": [ -70.679965227403301, -33.4508943874567 ] } },
{ "type": "Feature", "properties": { "FID": 12, "objectid": 12, "id": "12", "especial": "EXISTENTE", "estacion": "EXISTENTE", "nombre": "LOS HEROES", "temporal": "", "f1": 1, "tipo": "ESTACION METRO", "linea": "Linea 1" }, "geometry": { "type": "Point", "coordinates": [ -70.660444747486693, -33.446281428522497 ] } },
{ "type": "Feature", "properties": { "FID": 13, "objectid": 13, "id": "13", "especial": "EXISTENTE", "estacion": "EXISTENTE", "nombre": "REPUBLICA", "temporal": "", "f1": 1, "tipo": "ESTACION METRO", "linea": "Linea 1" }, "geometry": { "type": "Point", "coordinates": [ -70.664244852076905, -33.446895949387397 ] } },
{ "type": "Feature", "properties": { "FID": 14, "objectid": 14, "id": "14", "especial": "EXISTENTE", "estacion": "EXISTENTE", "nombre": "UNION LATINOAMERICANA", "temporal": "", "f1": 1, "tipo": "ESTACION METRO", "linea": "Linea 1" }, "geometry": { "type": "Point", "coordinates": [ -70.674365911645495, -33.449651773241101 ] } },
{ "type": "Feature", "properties": { "FID": 15, "objectid": 15, "id": "15", "especial": "CONSTRUCCION INTERMODAL", "estacion": "EXISTENTE", "nombre": "PLAZA DE ARMAS", "temporal": "INTERMODAL", "f1": 1, "tipo": "ESTACION METRO", "linea": "Linea 5" }, "geometry": { "type": "Point", "coordinates": [ -70.650757949203296, -33.437585970478402 ] } },
{ "type": "Feature", "properties": { "FID": 16, "objectid": 16, "id": "16", "especial": "EXISTENTE", "estacion": "EXISTENTE", "nombre": "BELLAS ARTES", "temporal": "", "f1": 1, "tipo": "ESTACION METRO", "linea": "Linea 5" }, "geometry": { "type": "Point", "coordinates": [ -70.6432741403911, -33.436298641163098 ] } },
{ "type": "Feature", "properties": { "FID": 17, "objectid": 17, "id": "17", "especial": "EXISTENTE", "estacion": "EXISTENTE", "nombre": "BAQUEDANO", "temporal": "", "f1": 1, "tipo": "ESTACION METRO", "linea": "Linea 1" }, "geometry": { "type": "Point", "coordinates": [ -70.633288271414003, -33.437309410751098 ] } },
{ "type": "Feature", "properties": { "FID": 18, "objectid": 18, "id": "18", "especial": "EXISTENTE", "estacion": "EXISTENTE", "nombre": "MONEDA", "temporal": "", "f1": 1, "tipo": "ESTACION METRO", "linea": "Linea 1" }, "geometry": { "type": "Point", "coordinates": [ -70.655781026951601, -33.445245158074897 ] } },
{ "type": "Feature", "properties": { "FID": 19, "objectid": 19, "id": "19", "especial": "CONSTRUCCION INTERMODAL", "estacion": "EXISTENTE", "nombre": "UNIVERSIDAD DE CHILE", "temporal": "INTERMODAL", "f1": 1, "tipo": "ESTACION METRO", "linea": "Linea 1" }, "geometry": { "type": "Point", "coordinates": [ -70.651722056351602, -33.444295596611802 ] } },
{ "type": "Feature", "properties": { "FID": 20, "objectid": 20, "id": "20", "especial": "EXISTENTE", "estacion": "EXISTENTE", "nombre": "SANTA LUCIA", "temporal": "", "f1": 1, "tipo": "ESTACION METRO", "linea": "Linea 1" }, "geometry": { "type": "Point", "coordinates": [ -70.646458881525703, -33.442985195097002 ] } },
{ "type": "Feature", "properties": { "FID": 21, "objectid": 21, "id": "21", "especial": "EXISTENTE", "estacion": "EXISTENTE", "nombre": "UNIVERSIDAD CATOLICA", "temporal": "", "f1": 1, "tipo": "ESTACION METRO", "linea": "Linea 1" }, "geometry": { "type": "Point", "coordinates": [ -70.641029640395303, -33.440798748758503 ] } },
{ "type": "Feature", "properties": { "FID": 22, "objectid": 22, "id": "22", "especial": "EXISTENTE INTERMODAL", "estacion": "EXISTENTE", "nombre": "CAL Y CANTO", "temporal": "INTERMODAL", "f1": 1, "tipo": "ESTACION METRO", "linea": "Linea 2" }, "geometry": { "type": "Point", "coordinates": [ -70.653232743744198, -33.433073859428902 ] } },
{ "type": "Feature", "properties": { "FID": 23, "objectid": 23, "id": "23", "especial": "EXISTENTE", "estacion": "EXISTENTE", "nombre": "TOESCA", "temporal": "", "f1": 1, "tipo": "ESTACION METRO", "linea": "Linea 2" }, "geometry": { "type": "Point", "coordinates": [ -70.658351292279804, -33.453655324291802 ] } },
{ "type": "Feature", "properties": { "FID": 24, "objectid": 24, "id": "24", "especial": "EXISTENTE", "estacion": "EXISTENTE", "nombre": "PARQUE O'HIGGINS", "temporal": "", "f1": 1, "tipo": "ESTACION METRO", "linea": "Linea 2" }, "geometry": { "type": "Point", "coordinates": [ -70.656426834057896, -33.460435268709901 ] } },
{ "type": "Feature", "properties": { "FID": 25, "objectid": 25, "id": "25", "especial": "CONSTRUCCION INTERMODAL", "estacion": "EXISTENTE", "nombre": "FRANKLIN", "temporal": "INTERMODAL", "f1": 1, "tipo": "ESTACION METRO", "linea": "Linea 2" }, "geometry": { "type": "Point", "coordinates": [ -70.649192753843806, -33.476478030003001 ] } },
{ "type": "Feature", "properties": { "FID": 26, "objectid": 26, "id": "26", "especial": "EXISTENTE", "estacion": "EXISTENTE", "nombre": "EL LLANO", "temporal": "", "f1": 1, "tipo": "ESTACION METRO", "linea": "Linea 2" }, "geometry": { "type": "Point", "coordinates": [ -70.649724124325999, -33.481969094659298 ] } },
{ "type": "Feature", "properties": { "FID": 27, "objectid": 27, "id": "27", "especial": "EXISTENTE", "estacion": "EXISTENTE", "nombre": "SAN MIGUEL", "temporal": "", "f1": 1, "tipo": "ESTACION METRO", "linea": "Linea 2" }, "geometry": { "type": "Point", "coordinates": [ -70.6507949817575, -33.488918548731 ] } },
{ "type": "Feature", "properties": { "FID": 28, "objectid": 28, "id": "28", "especial": "EXISTENTE", "estacion": "EXISTENTE", "nombre": "LO VIAL", "temporal": "", "f1": 1, "tipo": "ESTACION METRO", "linea": "Linea 2" }, "geometry": { "type": "Point", "coordinates": [ -70.652827124030196, -33.496498252391298 ] } },
{ "type": "Feature", "properties": { "FID": 29, "objectid": 29, "id": "29", "especial": "EXISTENTE", "estacion": "EXISTENTE", "nombre": "DEPARTAMENTAL", "temporal": "", "f1": 1, "tipo": "ESTACION METRO", "linea": "Linea 2" }, "geometry": { "type": "Point", "coordinates": [ -70.654955786855695, -33.503433528624299 ] } },
{ "type": "Feature", "properties": { "FID": 30, "objectid": 30, "id": "30", "especial": "EXISTENTE", "estacion": "EXISTENTE", "nombre": "CIUDAD DEL NINO", "temporal": "", "f1": 1, "tipo": "ESTACION METRO", "linea": "Linea 2" }, "geometry": { "type": "Point", "coordinates": [ -70.657078079171598, -33.511693691735303 ] } },
{ "type": "Feature", "properties": { "FID": 31, "objectid": 31, "id": "31", "especial": "EXISTENTE", "estacion": "EXISTENTE", "nombre": "LO OVALLE", "temporal": "", "f1": 1, "tipo": "ESTACION METRO", "linea": "Linea 2" }, "geometry": { "type": "Point", "coordinates": [ -70.659085065705895, -33.517985917585698 ] } },
{ "type": "Feature", "properties": { "FID": 32, "objectid": 32, "id": "32", "especial": "EXISTENTE", "estacion": "EXISTENTE", "nombre": "EL PARRON", "temporal": "", "f1": 0, "tipo": "ESTACION METRO", "linea": "Linea 2" }, "geometry": { "type": "Point", "coordinates": [ -70.661263487527094, -33.526644764157503 ] } },
{ "type": "Feature", "properties": { "FID": 33, "objectid": 33, "id": "33", "especial": "EXISTENTE", "estacion": "EXISTENTE", "nombre": "LA CISTERNA", "temporal": "", "f1": 0, "tipo": "ESTACION METRO", "linea": "Linea 2" }, "geometry": { "type": "Point", "coordinates": [ -70.664195295909494, -33.537566174714001 ] } },
{ "type": "Feature", "properties": { "FID": 34, "objectid": 34, "id": "34", "especial": "EXISTENTE", "estacion": "EXISTENTE", "nombre": "PARQUE BUSTAMANTE", "temporal": "", "f1": 1, "tipo": "ESTACION METRO", "linea": "Linea 5" }, "geometry": { "type": "Point", "coordinates": [ -70.632197885254996, -33.441379189014199 ] } },
{ "type": "Feature", "properties": { "FID": 35, "objectid": 35, "id": "35", "especial": "EXISTENTE", "estacion": "EXISTENTE", "nombre": "SANTA ISABEL", "temporal": "", "f1": 1, "tipo": "ESTACION METRO", "linea": "Linea 5" }, "geometry": { "type": "Point", "coordinates": [ -70.630263920306007, -33.447152195510597 ] } },
{ "type": "Feature", "properties": { "FID": 36, "objectid": 36, "id": "36", "especial": "CONSTRUCCION INTERMODAL", "estacion": "EXISTENTE", "nombre": "IRARRAZAVAL", "temporal": "INTERMODAL", "f1": 1, "tipo": "ESTACION METRO", "linea": "Linea 5" }, "geometry": { "type": "Point", "coordinates": [ -70.629040694574002, -33.452450810764603 ] } },
{ "type": "Feature", "properties": { "FID": 37, "objectid": 37, "id": "37", "especial": "CONSTRUCCION INTERMODAL", "estacion": "EXISTENTE", "nombre": "NUBLE", "temporal": "INTERMODAL", "f1": 1, "tipo": "ESTACION METRO", "linea": "Linea 5" }, "geometry": { "type": "Point", "coordinates": [ -70.624912816788907, -33.467170357440999 ] } },
{ "type": "Feature", "properties": { "FID": 38, "objectid": 38, "id": "38", "especial": "EXISTENTE", "estacion": "EXISTENTE", "nombre": "RODRIGO DE ARAYA", "temporal": "", "f1": 1, "tipo": "ESTACION METRO", "linea": "Linea 5" }, "geometry": { "type": "Point", "coordinates": [ -70.622471157737706, -33.476689367675803 ] } },
{ "type": "Feature", "properties": { "FID": 39, "objectid": 39, "id": "39", "especial": "EXISTENTE", "estacion": "EXISTENTE", "nombre": "CARLOS VALDOVINO", "temporal": "", "f1": 1, "tipo": "ESTACION METRO", "linea": "Linea 5" }, "geometry": { "type": "Point", "coordinates": [ -70.619165771116897, -33.486301994065599 ] } },
{ "type": "Feature", "properties": { "FID": 40, "objectid": 40, "id": "40", "especial": "EXISTENTE", "estacion": "EXISTENTE", "nombre": "SAN JOAQUIN", "temporal": "", "f1": 1, "tipo": "ESTACION METRO", "linea": "Linea 5" }, "geometry": { "type": "Point", "coordinates": [ -70.616408593157402, -33.496155068644804 ] } },
{ "type": "Feature", "properties": { "FID": 41, "objectid": 41, "id": "41", "especial": "EXISTENTE", "estacion": "EXISTENTE", "nombre": "PEDRERO", "temporal": "", "f1": 1, "tipo": "ESTACION METRO", "linea": "Linea 5" }, "geometry": { "type": "Point", "coordinates": [ -70.613183023127306, -33.507973007283603 ] } },
{ "type": "Feature", "properties": { "FID": 42, "objectid": 42, "id": "42", "especial": "EXISTENTE", "estacion": "EXISTENTE", "nombre": "MIRADOR", "temporal": "", "f1": 1, "tipo": "ESTACION METRO", "linea": "Linea 5" }, "geometry": { "type": "Point", "coordinates": [ -70.606130767122906, -33.513109336434603 ] } },
{ "type": "Feature", "properties": { "FID": 43, "objectid": 43, "id": "43", "especial": "EXISTENTE", "estacion": "EXISTENTE", "nombre": "BELLAVISTA", "temporal": "", "f1": 1, "tipo": "ESTACION METRO", "linea": "Linea 5" }, "geometry": { "type": "Point", "coordinates": [ -70.598717994101705, -33.520680550369697 ] } },
{ "type": "Feature", "properties": { "FID": 44, "objectid": 44, "id": "44", "especial": "EXISTENTE", "estacion": "EXISTENTE", "nombre": "LOS LEONES", "temporal": "", "f1": 1, "tipo": "ESTACION METRO", "linea": "Linea 1" }, "geometry": { "type": "Point", "coordinates": [ -70.608925161123594, -33.422637924810999 ] } },
{ "type": "Feature", "properties": { "FID": 45, "objectid": 45, "id": "45", "especial": "EXISTENTE", "estacion": "EXISTENTE", "nombre": "PEDRO DE VALDIVIA", "temporal": "", "f1": 1, "tipo": "ESTACION METRO", "linea": "Linea 1" }, "geometry": { "type": "Point", "coordinates": [ -70.613800373644807, -33.425662693125403 ] } },
{ "type": "Feature", "properties": { "FID": 46, "objectid": 46, "id": "46", "especial": "EXISTENTE", "estacion": "EXISTENTE", "nombre": "TOBALABA", "temporal": "", "f1": 1, "tipo": "ESTACION METRO", "linea": "Linea 1" }, "geometry": { "type": "Point", "coordinates": [ -70.601664180142393, -33.418486229973603 ] } },
{ "type": "Feature", "properties": { "FID": 47, "objectid": 47, "id": "47", "especial": "EXISTENTE", "estacion": "EXISTENTE", "nombre": "SALVADOR", "temporal": "", "f1": 1, "tipo": "ESTACION METRO", "linea": "Linea 1" }, "geometry": { "type": "Point", "coordinates": [ -70.626199700186504, -33.434144080960301 ] } },
{ "type": "Feature", "properties": { "FID": 48, "objectid": 48, "id": "48", "especial": "EXISTENTE", "estacion": "EXISTENTE", "nombre": "MANUEL MONTT", "temporal": "", "f1": 1, "tipo": "ESTACION METRO", "linea": "Linea 1" }, "geometry": { "type": "Point", "coordinates": [ -70.6193876026189, -33.428974200297603 ] } },
{ "type": "Feature", "properties": { "FID": 49, "objectid": 49, "id": "49", "especial": "EXISTENTE", "estacion": "EXISTENTE", "nombre": "ALCANTARA", "temporal": "", "f1": 1, "tipo": "ESTACION METRO", "linea": "Linea 1" }, "geometry": { "type": "Point", "coordinates": [ -70.589680896862603, -33.4153595288739 ] } },
{ "type": "Feature", "properties": { "FID": 50, "objectid": 50, "id": "50", "especial": "EXISTENTE", "estacion": "EXISTENTE", "nombre": "EL GOLF", "temporal": "", "f1": 1, "tipo": "ESTACION METRO", "linea": "Linea 1" }, "geometry": { "type": "Point", "coordinates": [ -70.595570205951901, -33.416577676003101 ] } },
{ "type": "Feature", "properties": { "FID": 51, "objectid": 51, "id": "51", "especial": "EXISTENTE", "estacion": "EXISTENTE", "nombre": "ESCUELA MILITAR", "temporal": "", "f1": 1, "tipo": "ESTACION METRO", "linea": "Linea 1" }, "geometry": { "type": "Point", "coordinates": [ -70.584311038041704, -33.4141838217081 ] } },
{ "type": "Feature", "properties": { "FID": 52, "objectid": 52, "id": "52", "especial": "EXISTENTE", "estacion": "EXISTENTE", "nombre": "VICENTE VALDES", "temporal": "", "f1": 0, "tipo": "ESTACION METRO", "linea": "Linea 5" }, "geometry": { "type": "Point", "coordinates": [ -70.5965021479863, -33.526495555114501 ] } },
{ "type": "Feature", "properties": { "FID": 53, "objectid": 53, "id": "53", "especial": "EXISTENTE", "estacion": "EXISTENTE", "nombre": "ROJAS MAGALLANES", "temporal": "", "f1": 0, "tipo": "ESTACION METRO", "linea": "Linea 4" }, "geometry": { "type": "Point", "coordinates": [ -70.592837049325794, -33.535562606066598 ] } },
{ "type": "Feature", "properties": { "FID": 54, "objectid": 54, "id": "54", "especial": "EXISTENTE", "estacion": "EXISTENTE", "nombre": "TRINIDAD", "temporal": "", "f1": 0, "tipo": "ESTACION METRO", "linea": "Linea 4" }, "geometry": { "type": "Point", "coordinates": [ -70.587680943842201, -33.547121952292002 ] } },
{ "type": "Feature", "properties": { "FID": 55, "objectid": 55, "id": "55", "especial": "EXISTENTE", "estacion": "EXISTENTE", "nombre": "LOS QUILLAYES", "temporal": "", "f1": 0, "tipo": "ESTACION METRO", "linea": "Linea 4" }, "geometry": { "type": "Point", "coordinates": [ -70.584444276656995, -33.564591787830899 ] } },
{ "type": "Feature", "properties": { "FID": 56, "objectid": 56, "id": "56", "especial": "EXISTENTE", "estacion": "EXISTENTE", "nombre": "SOTERO DEL RIO", "temporal": "", "f1": 0, "tipo": "ESTACION METRO", "linea": "Linea 4" }, "geometry": { "type": "Point", "coordinates": [ -70.581945507957897, -33.576096512545099 ] } },
{ "type": "Feature", "properties": { "FID": 57, "objectid": 57, "id": "57", "especial": "EXISTENTE", "estacion": "EXISTENTE", "nombre": "ELISA CORREA", "temporal": "", "f1": 0, "tipo": "ESTACION METRO", "linea": "Linea 4" }, "geometry": { "type": "Point", "coordinates": [ -70.583704356162897, -33.568952353188202 ] } },
{ "type": "Feature", "properties": { "FID": 58, "objectid": 58, "id": "58", "especial": "EXISTENTE", "estacion": "EXISTENTE", "nombre": "LAS MERCEDES", "temporal": "", "f1": 0, "tipo": "ESTACION METRO", "linea": "Linea 4" }, "geometry": { "type": "Point", "coordinates": [ -70.578815469705205, -33.594157460037202 ] } },
{ "type": "Feature", "properties": { "FID": 59, "objectid": 59, "id": "59", "especial": "EXISTENTE", "estacion": "EXISTENTE", "nombre": "PROTECTORA DE LA INFANCIA", "temporal": "", "f1": 0, "tipo": "ESTACION METRO", "linea": "Linea 4" }, "geometry": { "type": "Point", "coordinates": [ -70.580262592550199, -33.585855138649499 ] } },
{ "type": "Feature", "properties": { "FID": 60, "objectid": 60, "id": "60", "especial": "EXISTENTE", "estacion": "EXISTENTE", "nombre": "PLAZA PUENTE ALTO", "temporal": "", "f1": 0, "tipo": "ESTACION METRO", "linea": "Linea 4" }, "geometry": { "type": "Point", "coordinates": [ -70.575848683156195, -33.609370237575497 ] } },
{ "type": "Feature", "properties": { "FID": 61, "objectid": 61, "id": "61", "especial": "EXISTENTE", "estacion": "EXISTENTE", "nombre": "BILBAO", "temporal": "", "f1": 0, "tipo": "ESTACION METRO", "linea": "Linea 4" }, "geometry": { "type": "Point", "coordinates": [ -70.584828625265999, -33.431717552653701 ] } },
{ "type": "Feature", "properties": { "FID": 62, "objectid": 62, "id": "62", "especial": "EXISTENTE", "estacion": "EXISTENTE", "nombre": "COLON", "temporal": "", "f1": 0, "tipo": "ESTACION METRO", "linea": "Linea 4" }, "geometry": { "type": "Point", "coordinates": [ -70.5912090291461, -33.426529571086 ] } },
{ "type": "Feature", "properties": { "FID": 63, "objectid": 63, "id": "63", "especial": "EXISTENTE", "estacion": "EXISTENTE", "nombre": "PRINCIPE DE GALES", "temporal": "", "f1": 0, "tipo": "ESTACION METRO", "linea": "Linea 4" }, "geometry": { "type": "Point", "coordinates": [ -70.573539745433493, -33.438103200310501 ] } },
{ "type": "Feature", "properties": { "FID": 64, "objectid": 64, "id": "64", "especial": "EXISTENTE", "estacion": "EXISTENTE", "nombre": "SIMON BOLIVAR", "temporal": "", "f1": 0, "tipo": "ESTACION METRO", "linea": "Linea 4" }, "geometry": { "type": "Point", "coordinates": [ -70.571714704645004, -33.4480246786515 ] } },
{ "type": "Feature", "properties": { "FID": 65, "objectid": 65, "id": "65", "especial": "EXISTENTE", "estacion": "EXISTENTE", "nombre": "PLAZA EGAÑA", "temporal": "", "f1": 0, "tipo": "ESTACION METRO", "linea": "Linea 4" }, "geometry": { "type": "Point", "coordinates": [ -70.570809145452898, -33.453481926758599 ] } },
{ "type": "Feature", "properties": { "FID": 66, "objectid": 66, "id": "66", "especial": "EXISTENTE", "estacion": "EXISTENTE", "nombre": "LOS ORIENTALES", "temporal": "", "f1": 0, "tipo": "ESTACION METRO", "linea": "Linea 4" }, "geometry": { "type": "Point", "coordinates": [ -70.572203484936296, -33.459047729868402 ] } },
{ "type": "Feature", "properties": { "FID": 67, "objectid": 67, "id": "67", "especial": "EXISTENTE", "estacion": "EXISTENTE", "nombre": "GRECIA", "temporal": "", "f1": 0, "tipo": "ESTACION METRO", "linea": "Linea 4" }, "geometry": { "type": "Point", "coordinates": [ -70.576319665436301, -33.468906186473099 ] } },
{ "type": "Feature", "properties": { "FID": 68, "objectid": 68, "id": "68", "especial": "EXISTENTE", "estacion": "EXISTENTE", "nombre": "LOS PRESIDENTES", "temporal": "", "f1": 0, "tipo": "ESTACION METRO", "linea": "Linea 4" }, "geometry": { "type": "Point", "coordinates": [ -70.579227537841604, -33.481404573473696 ] } },
{ "type": "Feature", "properties": { "FID": 69, "objectid": 69, "id": "69", "especial": "EXISTENTE", "estacion": "EXISTENTE", "nombre": "QUILIN", "temporal": "", "f1": 0, "tipo": "ESTACION METRO", "linea": "Linea 4" }, "geometry": { "type": "Point", "coordinates": [ -70.580133706980803, -33.487770046836303 ] } },
{ "type": "Feature", "properties": { "FID": 70, "objectid": 70, "id": "70", "especial": "EXISTENTE", "estacion": "EXISTENTE", "nombre": "LAS TORRES", "temporal": "", "f1": 0, "tipo": "ESTACION METRO", "linea": "Linea 4" }, "geometry": { "type": "Point", "coordinates": [ -70.587117219911704, -33.500288040303602 ] } },
{ "type": "Feature", "properties": { "FID": 71, "objectid": 71, "id": "71", "especial": "EXISTENTE", "estacion": "EXISTENTE", "nombre": "MACUL", "temporal": "", "f1": 0, "tipo": "ESTACION METRO", "linea": "Linea 4" }, "geometry": { "type": "Point", "coordinates": [ -70.589886290833206, -33.50788092466 ] } },
{ "type": "Feature", "properties": { "FID": 72, "objectid": 72, "id": "72", "especial": "EXISTENTE", "estacion": "EXISTENTE", "nombre": "VICUNA MACKENNA", "temporal": "", "f1": 0, "tipo": "ESTACION METRO", "linea": "Linea 4" }, "geometry": { "type": "Point", "coordinates": [ -70.5975137809302, -33.521843545778403 ] } },
{ "type": "Feature", "properties": { "FID": 73, "objectid": 73, "id": "73", "especial": "EXISTENTE", "estacion": "EXISTENTE", "nombre": "SANTA JULIA", "temporal": "", "f1": 0, "tipo": "ESTACION METRO", "linea": "Linea 4A" }, "geometry": { "type": "Point", "coordinates": [ -70.605442350858198, -33.531179343630697 ] } },
{ "type": "Feature", "properties": { "FID": 74, "objectid": 74, "id": "74", "especial": "EXISTENTE", "estacion": "EXISTENTE", "nombre": "LA GRANJA", "temporal": "", "f1": 0, "tipo": "ESTACION METRO", "linea": "Linea 4A" }, "geometry": { "type": "Point", "coordinates": [ -70.609964812666604, -33.537649323241801 ] } },
{ "type": "Feature", "properties": { "FID": 75, "objectid": 75, "id": "75", "especial": "EXISTENTE", "estacion": "EXISTENTE", "nombre": "SANTA ROSA", "temporal": "", "f1": 0, "tipo": "ESTACION METRO", "linea": "Linea 4A" }, "geometry": { "type": "Point", "coordinates": [ -70.634141394641603, -33.542515496558202 ] } },
{ "type": "Feature", "properties": { "FID": 76, "objectid": 76, "id": "76", "especial": "EXISTENTE", "estacion": "EXISTENTE", "nombre": "SAN RAMON", "temporal": "", "f1": 0, "tipo": "ESTACION METRO", "linea": "Linea 4A" }, "geometry": { "type": "Point", "coordinates": [ -70.643316230788201, -33.541204662178203 ] } },
{ "type": "Feature", "properties": { "FID": 77, "objectid": 77, "id": "77", "especial": "EXISTENTE", "estacion": "EXISTENTE", "nombre": "PATRONATO", "temporal": "", "f1": 0, "tipo": "ESTACION METRO", "linea": "Linea 2" }, "geometry": { "type": "Point", "coordinates": [ -70.647043941189906, -33.429662678660797 ] } },
{ "type": "Feature", "properties": { "FID": 78, "objectid": 78, "id": "78", "especial": "EXISTENTE", "estacion": "EXISTENTE", "nombre": "CERRO BLANCO", "temporal": "", "f1": 0, "tipo": "ESTACION METRO", "linea": "Linea 2" }, "geometry": { "type": "Point", "coordinates": [ -70.6449483392731, -33.422181725635198 ] } },
{ "type": "Feature", "properties": { "FID": 79, "objectid": 79, "id": "79", "especial": "EXISTENTE", "estacion": "EXISTENTE", "nombre": "RONDIZZONI", "temporal": "", "f1": 1, "tipo": "ESTACION METRO", "linea": "Linea 2" }, "geometry": { "type": "Point", "coordinates": [ -70.655942182923496, -33.469975207245199 ] } },
{ "type": "Feature", "properties": { "FID": 80, "objectid": 80, "id": "80", "especial": "EXISTENTE", "estacion": "EXISTENTE", "nombre": "CEMENTERIOS", "temporal": "", "f1": 0, "tipo": "ESTACION METRO", "linea": "Linea 2" }, "geometry": { "type": "Point", "coordinates": [ -70.643373354249803, -33.414038116351001 ] } },
{ "type": "Feature", "properties": { "FID": 81, "objectid": 81, "id": "81", "especial": "EXISTENTE", "estacion": "EXISTENTE", "nombre": "EINSTEN", "temporal": "", "f1": 0, "tipo": "ESTACION METRO", "linea": "Linea 2" }, "geometry": { "type": "Point", "coordinates": [ -70.6430269260008, -33.4066024836564 ] } },
{ "type": "Feature", "properties": { "FID": 82, "objectid": 82, "id": "82", "especial": "EXISTENTE", "estacion": "EXISTENTE", "nombre": "DORSAL", "temporal": "", "f1": 0, "tipo": "ESTACION METRO", "linea": "Linea 2" }, "geometry": { "type": "Point", "coordinates": [ -70.642677660209401, -33.397018127251897 ] } },
{ "type": "Feature", "properties": { "FID": 83, "objectid": 83, "id": "83", "especial": "EXISTENTE", "estacion": "EXISTENTE", "nombre": "ZAPADORES", "temporal": "", "f1": 0, "tipo": "ESTACION METRO", "linea": "Linea 2" }, "geometry": { "type": "Point", "coordinates": [ -70.642409210135497, -33.390981072199303 ] } },
{ "type": "Feature", "properties": { "FID": 84, "objectid": 84, "id": "84", "especial": "EXISTENTE", "estacion": "EXISTENTE", "nombre": "VESPUCIO", "temporal": "", "f1": 0, "tipo": "ESTACION METRO", "linea": "Linea 2" }, "geometry": { "type": "Point", "coordinates": [ -70.646513926246001, -33.380196758527497 ] } },
{ "type": "Feature", "properties": { "FID": 85, "objectid": 0, "id": "85", "especial": "EXISTENTE", "estacion": "EXISTENTE", "nombre": "HERNANDO DE MAGALLANES", "temporal": "", "f1": 0, "tipo": "ESTACION METRO", "linea": "Linea 1" }, "geometry": { "type": "Point", "coordinates": [ -70.556874324115697, -33.4077535826152 ] } },
{ "type": "Feature", "properties": { "FID": 86, "objectid": 0, "id": "86", "especial": "EXISTENTE", "estacion": "EXISTENTE", "nombre": "MANQUEHUE", "temporal": "", "f1": 0, "tipo": "ESTACION METRO", "linea": "Linea 1" }, "geometry": { "type": "Point", "coordinates": [ -70.568429138097301, -33.409140867399998 ] } },
{ "type": "Feature", "properties": { "FID": 87, "objectid": 0, "id": "87", "especial": "EXISTENTE", "estacion": "EXISTENTE", "nombre": "LOS DOMINICOS", "temporal": "", "f1": 0, "tipo": "ESTACION METRO", "linea": "Linea 1" }, "geometry": { "type": "Point", "coordinates": [ -70.544849835273595, -33.407894026083902 ] } },
{ "type": "Feature", "properties": { "FID": 88, "objectid": 0, "id": "88", "especial": "EXISTENTE", "estacion": "EXISTENTE", "nombre": "PLAZA DE MAIPU", "temporal": "", "f1": 0, "tipo": "ESTACION METRO", "linea": "Linea 5" }, "geometry": { "type": "Point", "coordinates": [ -70.757165850242203, -33.510490597179498 ] } },
{ "type": "Feature", "properties": { "FID": 89, "objectid": 0, "id": "89", "especial": "PROYECTADO", "estacion": "PROYECTADO", "nombre": "HUECHURABA", "temporal": "", "f1": 0, "tipo": "ESTACION METRO", "linea": "Linea 3" }, "geometry": { "type": "Point", "coordinates": [ -70.689431672252994, -33.366508668346803 ] } },
{ "type": "Feature", "properties": { "FID": 90, "objectid": 0, "id": "90", "especial": "PROYECTADO", "estacion": "PROYECTADO", "nombre": "VIVACETA", "temporal": "", "f1": 0, "tipo": "ESTACION METRO", "linea": "Linea 3" }, "geometry": { "type": "Point", "coordinates": [ -70.679325980150097, -33.3859269188792 ] } },
{ "type": "Feature", "properties": { "FID": 91, "objectid": 0, "id": "91", "especial": "PROYECTADO", "estacion": "PROYECTADO", "nombre": "CARDENAL CARO", "temporal": "", "f1": 0, "tipo": "ESTACION METRO", "linea": "Linea 3" }, "geometry": { "type": "Point", "coordinates": [ -70.686430435952204, -33.373610802126798 ] } },
{ "type": "Feature", "properties": { "FID": 92, "objectid": 0, "id": "92", "especial": "PROYECTADO", "estacion": "PROYECTADO", "nombre": "CONCHALI", "temporal": "", "f1": 0, "tipo": "ESTACION METRO", "linea": "Linea 3" }, "geometry": { "type": "Point", "coordinates": [ -70.669772872665604, -33.397923910851503 ] } },
{ "type": "Feature", "properties": { "FID": 93, "objectid": 0, "id": "93", "especial": "PROYECTADO", "estacion": "PROYECTADO", "nombre": "PLAZA CHACABUCO", "temporal": "", "f1": 0, "tipo": "ESTACION METRO", "linea": "Linea 3" }, "geometry": { "type": "Point", "coordinates": [ -70.661120162632997, -33.406517262686101 ] } },
{ "type": "Feature", "properties": { "FID": 94, "objectid": 0, "id": "94", "especial": "PROYECTADO", "estacion": "PROYECTADO", "nombre": "HOSPITALES", "temporal": "", "f1": 0, "tipo": "ESTACION METRO", "linea": "Linea 3" }, "geometry": { "type": "Point", "coordinates": [ -70.656280129989199, -33.417773675126803 ] } },
{ "type": "Feature", "properties": { "FID": 95, "objectid": 0, "id": "95", "especial": "PROYECTADO", "estacion": "PROYECTADO", "nombre": "PARQUE ALMAGRO", "temporal": "", "f1": 0, "tipo": "ESTACION METRO", "linea": "Linea 3" }, "geometry": { "type": "Point", "coordinates": [ -70.650569648364893, -33.451848664468898 ] } },
{ "type": "Feature", "properties": { "FID": 96, "objectid": 0, "id": "96", "especial": "PROYECTADO", "estacion": "PROYECTADO", "nombre": "MATTA", "temporal": "", "f1": 0, "tipo": "ESTACION METRO", "linea": "Linea 3" }, "geometry": { "type": "Point", "coordinates": [ -70.643344556887101, -33.458356634473603 ] } },
{ "type": "Feature", "properties": { "FID": 97, "objectid": 0, "id": "97", "especial": "PROYECTADO", "estacion": "PROYECTADO", "nombre": "CHILE ESPAÑA", "temporal": "", "f1": 0, "tipo": "ESTACION METRO", "linea": "Linea 3" }, "geometry": { "type": "Point", "coordinates": [ -70.598359783162906, -33.454787439929703 ] } },
{ "type": "Feature", "properties": { "FID": 98, "objectid": 0, "id": "98", "especial": "PROYECTADO", "estacion": "PROYECTADO", "nombre": "MONSEÑOR EYZAGUIRRE", "temporal": "", "f1": 0, "tipo": "ESTACION METRO", "linea": "Linea 3" }, "geometry": { "type": "Point", "coordinates": [ -70.613673112478295, -33.453245309420403 ] } },
{ "type": "Feature", "properties": { "FID": 99, "objectid": 0, "id": "99", "especial": "PROYECTADO", "estacion": "PROYECTADO", "nombre": "DIAGONAL ORIENTE", "temporal": "", "f1": 0, "tipo": "ESTACION METRO", "linea": "Linea 3" }, "geometry": { "type": "Point", "coordinates": [ -70.580187605694803, -33.454749877013199 ] } },
{ "type": "Feature", "properties": { "FID": 100, "objectid": 0, "id": "100", "especial": "PROYECTADO", "estacion": "PROYECTADO", "nombre": "ÑUÑOA", "temporal": "INTERMODAL", "f1": 0, "tipo": "ESTACION METRO", "linea": "Linea 3" }, "geometry": { "type": "Point", "coordinates": [ -70.605008033491401, -33.4541694552221 ] } },
{ "type": "Feature", "properties": { "FID": 101, "objectid": 0, "id": "101", "especial": "PROYECTADO", "estacion": "PROYECTADO", "nombre": "LARRAIN", "temporal": "", "f1": 0, "tipo": "ESTACION METRO", "linea": "Linea 3" }, "geometry": { "type": "Point", "coordinates": [ -70.558957722568493, -33.452186914770301 ] } },
{ "type": "Feature", "properties": { "FID": 102, "objectid": 0, "id": "102", "especial": "PROYECTADO", "estacion": "PROYECTADO", "nombre": "INES DE SUAREZ", "temporal": "", "f1": 0, "tipo": "ESTACION METRO", "linea": "Linea 6" }, "geometry": { "type": "Point", "coordinates": [ -70.607560300933599, -33.438561733474003 ] } },
{ "type": "Feature", "properties": { "FID": 103, "objectid": 0, "id": "103", "especial": "PROYECTADO", "estacion": "PROYECTADO", "nombre": "ESTADIO NACIONAL", "temporal": "", "f1": 0, "tipo": "ESTACION METRO", "linea": "Linea 6" }, "geometry": { "type": "Point", "coordinates": [ -70.606387390772298, -33.462457452836901 ] } },
{ "type": "Feature", "properties": { "FID": 104, "objectid": 0, "id": "104", "especial": "PROYECTADO", "estacion": "PROYECTADO", "nombre": "BIO BIO", "temporal": "", "f1": 0, "tipo": "ESTACION METRO", "linea": "Linea 6" }, "geometry": { "type": "Point", "coordinates": [ -70.642186111622394, -33.476356227947797 ] } },
{ "type": "Feature", "properties": { "FID": 105, "objectid": 0, "id": "105", "especial": "PROYECTADO", "estacion": "PROYECTADO", "nombre": "CLUB HÍPICO", "temporal": "", "f1": 0, "tipo": "ESTACION METRO", "linea": "Linea 6" }, "geometry": { "type": "Point", "coordinates": [ -70.665115053602094, -33.476396238221902 ] } },
{ "type": "Feature", "properties": { "FID": 106, "objectid": 0, "id": "106", "especial": "PROYECTADO", "estacion": "PROYECTADO", "nombre": "LO VALLEDOR", "temporal": "", "f1": 0, "tipo": "ESTACION METRO", "linea": "Linea 6" }, "geometry": { "type": "Point", "coordinates": [ -70.680296068530396, -33.476292608790096 ] } },
{ "type": "Feature", "properties": { "FID": 107, "objectid": 0, "id": "107", "especial": "EXISTENTE", "estacion": "EXISTENTE", "nombre": "BARRANCAS", "temporal": "", "f1": 0, "tipo": "ESTACION METRO", "linea": "Linea 5" }, "geometry": { "type": "Point", "coordinates": [ -70.739176201087801, -33.452441447945198 ] } },
{ "type": "Feature", "properties": { "FID": 108, "objectid": 0, "id": "108", "especial": "EXISTENTE", "estacion": "EXISTENTE", "nombre": "LAGUNA SUR", "temporal": "", "f1": 0, "tipo": "ESTACION METRO", "linea": "Linea 5" }, "geometry": { "type": "Point", "coordinates": [ -70.737813557863007, -33.462817522300597 ] } },
{ "type": "Feature", "properties": { "FID": 109, "objectid": 0, "id": "109", "especial": "EXISTENTE", "estacion": "EXISTENTE", "nombre": "LAS PARCELAS", "temporal": "", "f1": 0, "tipo": "ESTACION METRO", "linea": "Linea 5" }, "geometry": { "type": "Point", "coordinates": [ -70.739728308409894, -33.475314412504702 ] } },
{ "type": "Feature", "properties": { "FID": 110, "objectid": 0, "id": "110", "especial": "EXISTENTE", "estacion": "EXISTENTE", "nombre": "MONTE TABOR", "temporal": "", "f1": 0, "tipo": "ESTACION METRO", "linea": "Linea 5" }, "geometry": { "type": "Point", "coordinates": [ -70.745130929980803, -33.482138735395701 ] } },
{ "type": "Feature", "properties": { "FID": 111, "objectid": 0, "id": "111", "especial": "EXISTENTE", "estacion": "EXISTENTE", "nombre": "DEL SOL", "temporal": "", "f1": 0, "tipo": "ESTACION METRO", "linea": "Linea 5" }, "geometry": { "type": "Point", "coordinates": [ -70.752093353865206, -33.488947941259703 ] } },
{ "type": "Feature", "properties": { "FID": 112, "objectid": 0, "id": "112", "especial": "EXISTENTE", "estacion": "EXISTENTE", "nombre": "SANTIAGO BUERAS", "temporal": "", "f1": 0, "tipo": "ESTACION METRO", "linea": "Linea 5" }, "geometry": { "type": "Point", "coordinates": [ -70.757380317283094, -33.496389719762099 ] } },
{ "type": "Feature", "properties": { "FID": 113, "objectid": 0, "id": "113", "especial": "EXISTENTE", "estacion": "EXISTENTE", "nombre": "LO PRADO", "temporal": "", "f1": 0, "tipo": "ESTACION METRO", "linea": "Linea 5" }, "geometry": { "type": "Point", "coordinates": [ -70.715740273401295, -33.443111256668303 ] } },
{ "type": "Feature", "properties": { "FID": 114, "objectid": 0, "id": "114", "especial": "EXISTENTE", "estacion": "EXISTENTE", "nombre": "GRUTA DE LOURDES", "temporal": "", "f1": 0, "tipo": "ESTACION METRO", "linea": "Linea 5" }, "geometry": { "type": "Point", "coordinates": [ -70.691187488936606, -33.438087934810497 ] } },
{ "type": "Feature", "properties": { "FID": 115, "objectid": 0, "id": "115", "especial": "EXISTENTE", "estacion": "EXISTENTE", "nombre": "BLANQUEADO", "temporal": "", "f1": 0, "tipo": "ESTACION METRO", "linea": "Linea 5" }, "geometry": { "type": "Point", "coordinates": [ -70.707181399112798, -33.441441827683903 ] } },
{ "type": "Feature", "properties": { "FID": 116, "objectid": 0, "id": "116", "especial": "EXISTENTE", "estacion": "EXISTENTE", "nombre": "PUDAHUEL", "temporal": "", "f1": 0, "tipo": "ESTACION METRO", "linea": "Linea 5" }, "geometry": { "type": "Point", "coordinates": [ -70.740649101218594, -33.444732794953197 ] } },
{ "type": "Feature", "properties": { "FID": 117, "objectid": 0, "id": "117", "especial": "PROYECTADO", "estacion": "PROYECTADO", "nombre": "CERRILLOS", "temporal": "", "f1": 0, "tipo": "ESTACION METRO", "linea": "Linea 6" }, "geometry": { "type": "Point", "coordinates": [ -70.695292499727003, -33.483308825186597 ] } }
]
}
